Name,Latitude,Longitude
New York,40.7128,-74.0060
London,51.5074,-0.1278
Tokyo,35.6895,139.6917
Sydney,-33.8688,151.2093
Cairo,30.0444,31.2357
Rio de Janeiro,-22.9068,-43.1729
Paris,48.8566,2.3522
Moscow,55.7558,37.6173
Toronto,43.65107,-79.347015
Mumbai,19.0760,72.8777
